{
"type": "FeatureCollection",
"name": "canoe_masset_out_points",
"crs": { "type": "name", "properties": { "name": "urn:ogc:def:crs:OGC:1.3:CRS84" } },
"features": [
{ "type": "Feature", "properties": { "Name": "22nd/23rd April Old Masset", "description": null, "timestamp": null, "begin": null, "end": null, "altitudeMode": null, "tessellate": -1, "extrude": 0, "visibility": -1, "drawOrder": null, "icon": null }, "geometry": { "type": "Point", "coordinates": [ -132.189966343735705, 54.040081786515017, 0.0 ] } },
{ "type": "Feature", "properties": { "Name": "21st April", "description": null, "timestamp": null, "begin": null, "end": null, "altitudeMode": null, "tessellate": -1, "extrude": 0, "visibility": -1, "drawOrder": null, "icon": null }, "geometry": { "type": "Point", "coordinates": [ -131.667815105361512, 54.117488851558242, 0.0 ] } },
{ "type": "Feature", "properties": { "Name": "19/20th April", "description": null, "timestamp": null, "begin": null, "end": null, "altitudeMode": null, "tessellate": -1, "extrude": 0, "visibility": -1, "drawOrder": null, "icon": null }, "geometry": { "type": "Point", "coordinates": [ -131.926296341301196, 53.627357943945348, 0.0 ] } },
{ "type": "Feature", "properties": { "Name": "18th April Hastings", "description": null, "timestamp": null, "begin": null, "end": null, "altitudeMode": null, "tessellate": -1, "extrude": 0, "visibility": -1, "drawOrder": null, "icon": null }, "geometry": { "type": "Point", "coordinates": [ -132.243757952454501, 53.205811132387232, 0.0 ] } },
{ "type": "Feature", "properties": { "Name": "18th April", "description": null, "timestamp": null, "begin": null, "end": null, "altitudeMode": null, "tessellate": -1, "extrude": 0, "visibility": -1, "drawOrder": null, "icon": null }, "geometry": { "type": "Point", "coordinates": [ -131.990955236271787, 53.266713048195697, 0.0 ] } }
]
}
