{
"type": "FeatureCollection",
"name": "canoe_out_points",
"crs": { "type": "name", "properties": { "name": "urn:ogc:def:crs:OGC:1.3:CRS84" } },
"features": [
{ "type": "Feature", "properties": { "Name": "Copper Bay", "description": null, "timestamp": null, "begin": null, "end": null, "altitudeMode": null, "tessellate": -1, "extrude": 0, "visibility": -1, "drawOrder": null, "icon": null }, "geometry": { "type": "Point", "coordinates": [ -131.789782491337007, 53.164401744197647, 0.0 ] } },
{ "type": "Feature", "properties": { "Name": "12th April", "description": null, "timestamp": null, "begin": null, "end": null, "altitudeMode": null, "tessellate": -1, "extrude": 0, "visibility": -1, "drawOrder": null, "icon": null }, "geometry": { "type": "Point", "coordinates": [ -132.243074276669688, 53.207898242469497, 0.0 ] } },
{ "type": "Feature", "properties": { "Name": "13th April", "description": null, "timestamp": null, "begin": null, "end": null, "altitudeMode": null, "tessellate": -1, "extrude": 0, "visibility": -1, "drawOrder": null, "icon": null }, "geometry": { "type": "Point", "coordinates": [ -131.824082553081013, 53.24314602375626, 0.0 ] } },
{ "type": "Feature", "properties": { "Name": "14th April", "description": null, "timestamp": null, "begin": null, "end": null, "altitudeMode": null, "tessellate": -1, "extrude": 0, "visibility": -1, "drawOrder": null, "icon": null }, "geometry": { "type": "Point", "coordinates": [ -131.800047603755502, 53.163180596268887, 0.0 ] } },
{ "type": "Feature", "properties": { "Name": "15th April Cumshewa", "description": null, "timestamp": null, "begin": null, "end": null, "altitudeMode": null, "tessellate": -1, "extrude": 0, "visibility": -1, "drawOrder": null, "icon": null }, "geometry": { "type": "Point", "coordinates": [ -131.686942377982206, 53.041206871885741, 0.0 ] } }
]
}
