{
"type": "FeatureCollection",
"name": "haida_villages",
"crs": { "type": "name", "properties": { "name": "urn:ogc:def:crs:OGC:1.3:CRS84" } },
"features": [
{ "type": "Feature", "properties": { "Name": "Cumshewa", "description": null, "timestamp": null, "begin": null, "end": null, "altitudeMode": null, "tessellate": -1, "extrude": 0, "visibility": -1, "drawOrder": null, "icon": null }, "geometry": { "type": "Point", "coordinates": [ -131.687104480796506, 53.041717464386721, 0.0 ] } },
{ "type": "Feature", "properties": { "Name": "Skidegate", "description": null, "timestamp": null, "begin": null, "end": null, "altitudeMode": null, "tessellate": -1, "extrude": 0, "visibility": -1, "drawOrder": null, "icon": null }, "geometry": { "type": "Point", "coordinates": [ -131.99138688069911, 53.267215702253772, 0.0 ] } },
{ "type": "Feature", "properties": { "Name": "Old Gold Harbour/Sqai'tao", "description": null, "timestamp": null, "begin": null, "end": null, "altitudeMode": null, "tessellate": -1, "extrude": 0, "visibility": -1, "drawOrder": null, "icon": null }, "geometry": { "type": "Point", "coordinates": [ -132.182191894082308, 52.955345197959467, 0.0 ] } },
{ "type": "Feature", "properties": { "Name": "Masset (Old)", "description": null, "timestamp": null, "begin": null, "end": null, "altitudeMode": null, "tessellate": -1, "extrude": 0, "visibility": -1, "drawOrder": null, "icon": null }, "geometry": { "type": "Point", "coordinates": [ -132.187904999999887, 54.040417, 0.0 ] } },
{ "type": "Feature", "properties": { "Name": "Kaisun", "description": null, "timestamp": null, "begin": null, "end": null, "altitudeMode": null, "tessellate": -1, "extrude": 0, "visibility": -1, "drawOrder": null, "icon": null }, "geometry": { "type": "Point", "coordinates": [ -132.458174926597707, 53.034718889886271, 0.0 ] } },
{ "type": "Feature", "properties": { "Name": "Haina / New Gold Harbour", "description": null, "timestamp": null, "begin": null, "end": null, "altitudeMode": null, "tessellate": -1, "extrude": 0, "visibility": -1, "drawOrder": null, "icon": null }, "geometry": { "type": "Point", "coordinates": [ -132.032228494076492, 53.216383051726069, 0.0 ] } },
{ "type": "Feature", "properties": { "Name": "Chaatl", "description": null, "timestamp": null, "begin": null, "end": null, "altitudeMode": null, "tessellate": -1, "extrude": 0, "visibility": -1, "drawOrder": null, "icon": null }, "geometry": { "type": "Point", "coordinates": [ -132.518267331191993, 53.106032036551817, 0.0 ] } }
]
}
