{
"type": "FeatureCollection",
"name": "skidegate_trip_up_points",
"crs": { "type": "name", "properties": { "name": "urn:ogc:def:crs:OGC:1.3:CRS84" } },
"features": [
{ "type": "Feature", "properties": { "Name": "Clover Point", "description": null, "timestamp": null, "begin": null, "end": null, "altitudeMode": null, "tessellate": -1, "extrude": 0, "visibility": -1, "drawOrder": null, "icon": null }, "geometry": { "type": "Point", "coordinates": [ -123.349078621627896, 48.40324322746801, 0.0 ] } },
{ "type": "Feature", "properties": { "Name": "Dawson Whaling Station", "description": null, "timestamp": null, "begin": null, "end": null, "altitudeMode": null, "tessellate": -1, "extrude": 0, "visibility": -1, "drawOrder": null, "icon": null }, "geometry": { "type": "Point", "coordinates": [ -124.604724069667995, 49.52795616020844, 0.0 ] } },
{ "type": "Feature", "properties": { "Name": "Comox", "description": null, "timestamp": null, "begin": null, "end": null, "altitudeMode": null, "tessellate": -1, "extrude": 0, "visibility": -1, "drawOrder": null, "icon": null }, "geometry": { "type": "Point", "coordinates": [ -124.928511262782806, 49.666951536313782, 0.0 ] } },
{ "type": "Feature", "properties": { "Name": "Cape Mudge", "description": null, "timestamp": null, "begin": null, "end": null, "altitudeMode": null, "tessellate": -1, "extrude": 0, "visibility": -1, "drawOrder": null, "icon": null }, "geometry": { "type": "Point", "coordinates": [ -125.177319532459904, 49.997096105010762, 0.0 ] } },
{ "type": "Feature", "properties": { "Name": "Wreck of Suwanee", "description": null, "timestamp": null, "begin": null, "end": null, "altitudeMode": null, "tessellate": -1, "extrude": 0, "visibility": -1, "drawOrder": null, "icon": null }, "geometry": { "type": "Point", "coordinates": [ -127.8300662623096, 50.908160134549277, 0.0 ] } },
{ "type": "Feature", "properties": { "Name": "28 September Salmon River", "description": null, "timestamp": null, "begin": null, "end": null, "altitudeMode": null, "tessellate": -1, "extrude": 0, "visibility": -1, "drawOrder": null, "icon": null }, "geometry": { "type": "Point", "coordinates": [ -125.949385821452907, 50.395983782961338, 0.0 ] } },
{ "type": "Feature", "properties": { "Name": "Sidney Spit Sept 21 1870", "description": null, "timestamp": null, "begin": null, "end": null, "altitudeMode": null, "tessellate": -1, "extrude": 0, "visibility": -1, "drawOrder": null, "icon": null }, "geometry": { "type": "Point", "coordinates": [ -123.349620501380301, 48.64539877452107, 0.0 ] } },
{ "type": "Feature", "properties": { "Name": "22nd September outside Plumper Pass", "description": null, "timestamp": null, "begin": null, "end": null, "altitudeMode": null, "tessellate": -1, "extrude": 0, "visibility": -1, "drawOrder": null, "icon": null }, "geometry": { "type": "Point", "coordinates": [ -123.342121063392199, 48.847122806457698, 0.0 ] } },
{ "type": "Feature", "properties": { "Name": "23rd September ?Long Island", "description": null, "timestamp": null, "begin": null, "end": null, "altitudeMode": null, "tessellate": -1, "extrude": 0, "visibility": -1, "drawOrder": null, "icon": null }, "geometry": { "type": "Point", "coordinates": [ -123.576330333526599, 48.945310477573187, 0.0 ] } },
{ "type": "Feature", "properties": { "Name": "25 September Nanaimo Harbour", "description": null, "timestamp": null, "begin": null, "end": null, "altitudeMode": null, "tessellate": -1, "extrude": 0, "visibility": -1, "drawOrder": null, "icon": null }, "geometry": { "type": "Point", "coordinates": [ -123.931672933304995, 49.169416228088778, 0.0 ] } },
{ "type": "Feature", "properties": { "Name": "25 September Abreast Hornby Island", "description": null, "timestamp": null, "begin": null, "end": null, "altitudeMode": null, "tessellate": -1, "extrude": 0, "visibility": -1, "drawOrder": null, "icon": null }, "geometry": { "type": "Point", "coordinates": [ -124.525775508886298, 49.540981642478698, 0.0 ] } },
{ "type": "Feature", "properties": { "Name": "26 September", "description": null, "timestamp": null, "begin": null, "end": null, "altitudeMode": null, "tessellate": -1, "extrude": 0, "visibility": -1, "drawOrder": null, "icon": null }, "geometry": { "type": "Point", "coordinates": [ -124.757450118151098, 49.704396192642967, 0.0 ] } },
{ "type": "Feature", "properties": { "Name": "27 September Duncan Bay", "description": null, "timestamp": null, "begin": null, "end": null, "altitudeMode": null, "tessellate": -1, "extrude": 0, "visibility": -1, "drawOrder": null, "icon": null }, "geometry": { "type": "Point", "coordinates": [ -125.291970044076194, 50.074110723845102, 0.0 ] } },
{ "type": "Feature", "properties": { "Name": "Ripple Point", "description": null, "timestamp": null, "begin": null, "end": null, "altitudeMode": null, "tessellate": -1, "extrude": 0, "visibility": -1, "drawOrder": null, "icon": null }, "geometry": { "type": "Point", "coordinates": [ -125.355139265171402, 50.134393695230408, 0.0 ] } },
{ "type": "Feature", "properties": { "Name": "Mount Holdsworth", "description": null, "timestamp": null, "begin": null, "end": null, "altitudeMode": null, "tessellate": -1, "extrude": 0, "visibility": -1, "drawOrder": null, "icon": null }, "geometry": { "type": "Point", "coordinates": [ -126.922169997920406, 50.513983303021099, 0.0 ] } },
{ "type": "Feature", "properties": { "Name": "30 September", "description": null, "timestamp": null, "begin": null, "end": null, "altitudeMode": null, "tessellate": -1, "extrude": 0, "visibility": -1, "drawOrder": null, "icon": null }, "geometry": { "type": "Point", "coordinates": [ -126.849646962208496, 50.577258273206247, 0.0 ] } },
{ "type": "Feature", "properties": { "Name": "Blinkhorn Island", "description": null, "timestamp": null, "begin": null, "end": null, "altitudeMode": null, "tessellate": -1, "extrude": 0, "visibility": -1, "drawOrder": null, "icon": null }, "geometry": { "type": "Point", "coordinates": [ -126.815454962517194, 50.550681660048298, 0.0 ] } },
{ "type": "Feature", "properties": { "Name": "Nimpkish River", "description": null, "timestamp": null, "begin": null, "end": null, "altitudeMode": null, "tessellate": -1, "extrude": 0, "visibility": -1, "drawOrder": null, "icon": null }, "geometry": { "type": "Point", "coordinates": [ -126.968878039061195, 50.569539087539269, 0.0 ] } },
{ "type": "Feature", "properties": { "Name": "Fort Rupert", "description": null, "timestamp": null, "begin": null, "end": null, "altitudeMode": null, "tessellate": -1, "extrude": 0, "visibility": -1, "drawOrder": null, "icon": null }, "geometry": { "type": "Point", "coordinates": [ -127.426055021436696, 50.690826046934262, 0.0 ] } },
{ "type": "Feature", "properties": { "Name": "Shadwell passage", "description": null, "timestamp": null, "begin": null, "end": null, "altitudeMode": null, "tessellate": -1, "extrude": 0, "visibility": -1, "drawOrder": null, "icon": null }, "geometry": { "type": "Point", "coordinates": [ -127.833918468874501, 50.89361987519905, 0.0 ] } },
{ "type": "Feature", "properties": { "Name": "?Mouth of Inside Passage", "description": null, "timestamp": null, "begin": null, "end": null, "altitudeMode": null, "tessellate": -1, "extrude": 0, "visibility": -1, "drawOrder": null, "icon": null }, "geometry": { "type": "Point", "coordinates": [ -127.819251982955606, 51.418762972629487, 0.0 ] } },
{ "type": "Feature", "properties": { "Name": "Cape Caution", "description": null, "timestamp": null, "begin": null, "end": null, "altitudeMode": null, "tessellate": -1, "extrude": 0, "visibility": -1, "drawOrder": null, "icon": null }, "geometry": { "type": "Point", "coordinates": [ -127.7712451158161, 51.1630084738077, 0.0 ] } },
{ "type": "Feature", "properties": { "Name": "Point Day", "description": null, "timestamp": null, "begin": null, "end": null, "altitudeMode": null, "tessellate": -1, "extrude": 0, "visibility": -1, "drawOrder": null, "icon": null }, "geometry": { "type": "Point", "coordinates": [ -128.994925513879394, 52.432254100384242, 0.0 ] } },
{ "type": "Feature", "properties": { "Name": "Milbanke Sound", "description": null, "timestamp": null, "begin": null, "end": null, "altitudeMode": null, "tessellate": -1, "extrude": 0, "visibility": -1, "drawOrder": null, "icon": null }, "geometry": { "type": "Point", "coordinates": [ -128.557714748196787, 52.327120245384258, 0.0 ] } },
{ "type": "Feature", "properties": { "Name": "3 October approx locn", "description": null, "timestamp": null, "begin": null, "end": null, "altitudeMode": null, "tessellate": -1, "extrude": 0, "visibility": -1, "drawOrder": null, "icon": null }, "geometry": { "type": "Point", "coordinates": [ -128.53368206724349, 52.118605090267302, 0.0 ] } },
{ "type": "Feature", "properties": { "Name": "Laredo Channel", "description": null, "timestamp": null, "begin": null, "end": null, "altitudeMode": null, "tessellate": -1, "extrude": 0, "visibility": -1, "drawOrder": null, "icon": null }, "geometry": { "type": "Point", "coordinates": [ -128.953980524766592, 52.652007836622232, 0.0 ] } },
{ "type": "Feature", "properties": { "Name": "4 October approx locn", "description": null, "timestamp": null, "begin": null, "end": null, "altitudeMode": null, "tessellate": -1, "extrude": 0, "visibility": -1, "drawOrder": null, "icon": null }, "geometry": { "type": "Point", "coordinates": [ -129.008590916492892, 52.67076123481521, 0.0 ] } },
{ "type": "Feature", "properties": { "Name": "Principe Channel", "description": null, "timestamp": null, "begin": null, "end": null, "altitudeMode": null, "tessellate": -1, "extrude": 0, "visibility": -1, "drawOrder": null, "icon": null }, "geometry": { "type": "Point", "coordinates": [ -129.753118351906295, 53.258270664238388, 0.0 ] } },
{ "type": "Feature", "properties": { "Name": "5  & 6 October approx locn", "description": null, "timestamp": null, "begin": null, "end": null, "altitudeMode": null, "tessellate": -1, "extrude": 0, "visibility": -1, "drawOrder": null, "icon": null }, "geometry": { "type": "Point", "coordinates": [ -129.918727660462309, 53.397646376840143, 0.0 ] } },
{ "type": "Feature", "properties": { "Name": "7 October approx locn", "description": null, "timestamp": null, "begin": null, "end": null, "altitudeMode": null, "tessellate": -1, "extrude": 0, "visibility": -1, "drawOrder": null, "icon": null }, "geometry": { "type": "Point", "coordinates": [ -130.430454900791091, 53.624630030932998, 0.0 ] } },
{ "type": "Feature", "properties": { "Name": "Bonilla Island", "description": null, "timestamp": null, "begin": null, "end": null, "altitudeMode": null, "tessellate": -1, "extrude": 0, "visibility": -1, "drawOrder": null, "icon": null }, "geometry": { "type": "Point", "coordinates": [ -130.617169927163303, 53.485937810591153, 0.0 ] } },
{ "type": "Feature", "properties": { "Name": "9 October approx. locn.", "description": null, "timestamp": null, "begin": null, "end": null, "altitudeMode": null, "tessellate": -1, "extrude": 0, "visibility": -1, "drawOrder": null, "icon": null }, "geometry": { "type": "Point", "coordinates": [ -131.994573978163402, 53.232227154883248, 0.0 ] } },
{ "type": "Feature", "properties": { "Name": "10 October Cowgitz Bay", "description": null, "timestamp": null, "begin": null, "end": null, "altitudeMode": null, "tessellate": -1, "extrude": 0, "visibility": -1, "drawOrder": null, "icon": null }, "geometry": { "type": "Point", "coordinates": [ -132.24367907939461, 53.206112396212632, 0.0 ] } },
{ "type": "Feature", "properties": { "Name": "Sept 21st Victoria wharf", "description": null, "timestamp": null, "begin": null, "end": null, "altitudeMode": null, "tessellate": -1, "extrude": 0, "visibility": -1, "drawOrder": null, "icon": null }, "geometry": { "type": "Point", "coordinates": [ -123.371564131253393, 48.424507367635272, 0.0 ] } },
{ "type": "Feature", "properties": { "Name": "24 September The Rapids / Narrows", "description": null, "timestamp": null, "begin": null, "end": null, "altitudeMode": null, "tessellate": -1, "extrude": 0, "visibility": -1, "drawOrder": null, "icon": null }, "geometry": { "type": "Point", "coordinates": [ -123.817244446933799, 49.136213102627899, 0.0 ] } },
{ "type": "Feature", "properties": { "Name": "29 September Adams River", "description": null, "timestamp": null, "begin": null, "end": null, "altitudeMode": null, "tessellate": -1, "extrude": 0, "visibility": -1, "drawOrder": null, "icon": null }, "geometry": { "type": "Point", "coordinates": [ -126.279161941415296, 50.470703498442447, 0.0 ] } },
{ "type": "Feature", "properties": { "Name": "2 October approx. area of near shipwreck", "description": null, "timestamp": null, "begin": null, "end": null, "altitudeMode": null, "tessellate": -1, "extrude": 0, "visibility": -1, "drawOrder": null, "icon": null }, "geometry": { "type": "Point", "coordinates": [ -128.321124403189003, 51.995387321642063, 0.0 ] } },
{ "type": "Feature", "properties": { "Name": "8 October in passage", "description": null, "timestamp": null, "begin": null, "end": null, "altitudeMode": null, "tessellate": -1, "extrude": 0, "visibility": -1, "drawOrder": null, "icon": null }, "geometry": { "type": "Point", "coordinates": [ -130.818202528281603, 53.618218308906293, 0.0 ] } },
{ "type": "Feature", "properties": { "Name": "1st October approx locn", "description": null, "timestamp": null, "begin": null, "end": null, "altitudeMode": null, "tessellate": -1, "extrude": 0, "visibility": -1, "drawOrder": null, "icon": null }, "geometry": { "type": "Point", "coordinates": [ -128.254843293212105, 51.50428165228049, 0.0 ] } }
]
}
